page_title,latitude,longitude,hitcount
Hochschule Trier,49.7674,6.63029,327
Stadtbibliothek Trier,49.7514,6.64139,138
Auguste-Viktoria-Gymnasium Trier,49.7564,6.64639,114
Humboldt-Gymnasium Trier,49.7514,6.63469,74
Deutsche Richterakademie,49.7388,6.65203,71
Priesterseminar Trier,49.7533,6.64,57
Welschnonnenkirche (Trier),49.7572,6.64528,57
